[
  {
    "id": "c001",
    "name": "New York",
    "lat": 40.7128,
    "lng": -74.006,
    "country_id": "US"
  },
  {
    "id": "c002",
    "name": "Los Angeles",
    "lat": 34.0522,
    "lng": -118.2437,
    "country_id": "US"
  },
  {
    "id": "c003",
    "name": "Chicago",
    "lat": 41.8781,
    "lng": -87.6298,
    "country_id": "US"
  },
  {
    "id": "c004",
    "name": "Houston",
    "lat": 29.7604,
    "lng": -95.3698,
    "country_id": "US"
  },
  {
    "id": "c005",
    "name": "Phoenix",
    "lat": 33.4484,
    "lng": -112.074,
    "country_id": "US"
  },
  {
    "id": "c006",
    "name": "Philadelphia",
    "lat": 39.9526,
    "lng": -75.1652,
    "country_id": "US"
  },
  {
    "id": "c007",
    "name": "San Antonio",
    "lat": 29.4241,
    "lng": -98.4936,
    "country_id": "US"
  },
  {
    "id": "c008",
    "name": "San Diego",
    "lat": 32.7157,
    "lng": -117.1611,
    "country_id": "US"
  },
  {
    "id": "c009",
    "name": "Dallas",
    "lat": 32.7767,
    "lng": -96.797,
    "country_id": "US"
  },
  {
    "id": "c010",
    "name": "San Francisco",
    "lat": 37.7749,
    "lng": -122.4194,
    "country_id": "US"
  },
  {
    "id": "c011",
    "name": "Seattle",
    "lat": 47.6062,
    "lng": -122.3321,
    "country_id": "US"
  },
  {
    "id": "c012",
    "name": "Denver",
    "lat": 39.7392,
    "lng": -104.9903,
    "country_id": "US"
  },
  {
    "id": "c013",
    "name": "Boston",
    "lat": 42.3601,
    "lng": -71.0589,
    "country_id": "US"
  },
  {
    "id": "c014",
    "name": "Miami",
    "lat": 25.7617,
    "lng": -80.1918,
    "country_id": "US"
  },
  {
    "id": "c015",
    "name": "Atlanta",
    "lat": 33.749,
    "lng": -84.388,
    "country_id": "US"
  },
  {
    "id": "c016",
    "name": "Minneapolis",
    "lat": 44.9778,
    "lng": -93.265,
    "country_id": "US"
  },
  {
    "id": "c017",
    "name": "Portland",
    "lat": 45.5051,
    "lng": -122.675,
    "country_id": "US"
  },
  {
    "id": "c018",
    "name": "Las Vegas",
    "lat": 36.1699,
    "lng": -115.1398,
    "country_id": "US"
  },
  {
    "id": "c019",
    "name": "Detroit",
    "lat": 42.3314,
    "lng": -83.0458,
    "country_id": "US"
  },
  {
    "id": "c020",
    "name": "Nashville",
    "lat": 36.1627,
    "lng": -86.7816,
    "country_id": "US"
  },
  {
    "id": "c021",
    "name": "London",
    "lat": 51.5074,
    "lng": -0.1278,
    "country_id": "GB"
  },
  {
    "id": "c022",
    "name": "Manchester",
    "lat": 53.4808,
    "lng": -2.2426,
    "country_id": "GB"
  },
  {
    "id": "c023",
    "name": "Birmingham",
    "lat": 52.4862,
    "lng": -1.8904,
    "country_id": "GB"
  },
  {
    "id": "c024",
    "name": "Glasgow",
    "lat": 55.8642,
    "lng": -4.2518,
    "country_id": "GB"
  },
  {
    "id": "c025",
    "name": "Edinburgh",
    "lat": 55.9533,
    "lng": -3.1883,
    "country_id": "GB"
  },
  {
    "id": "c026",
    "name": "Liverpool",
    "lat": 53.4084,
    "lng": -2.9916,
    "country_id": "GB"
  },
  {
    "id": "c027",
    "name": "Bristol",
    "lat": 51.4545,
    "lng": -2.5879,
    "country_id": "GB"
  },
  {
    "id": "c028",
    "name": "Leeds",
    "lat": 53.8008,
    "lng": -1.5491,
    "country_id": "GB"
  },
  {
    "id": "c029",
    "name": "Paris",
    "lat": 48.8566,
    "lng": 2.3522,
    "country_id": "FR"
  },
  {
    "id": "c030",
    "name": "Marseille",
    "lat": 43.2965,
    "lng": 5.3698,
    "country_id": "FR"
  },
  {
    "id": "c031",
    "name": "Lyon",
    "lat": 45.764,
    "lng": 4.8357,
    "country_id": "FR"
  },
  {
    "id": "c032",
    "name": "Toulouse",
    "lat": 43.6047,
    "lng": 1.4442,
    "country_id": "FR"
  },
  {
    "id": "c033",
    "name": "Nice",
    "lat": 43.7102,
    "lng": 7.262,
    "country_id": "FR"
  },
  {
    "id": "c034",
    "name": "Bordeaux",
    "lat": 44.8378,
    "lng": -0.5792,
    "country_id": "FR"
  },
  {
    "id": "c035",
    "name": "Berlin",
    "lat": 52.52,
    "lng": 13.405,
    "country_id": "DE"
  },
  {
    "id": "c036",
    "name": "Munich",
    "lat": 48.1351,
    "lng": 11.582,
    "country_id": "DE"
  },
  {
    "id": "c037",
    "name": "Hamburg",
    "lat": 53.5753,
    "lng": 10.0153,
    "country_id": "DE"
  },
  {
    "id": "c038",
    "name": "Cologne",
    "lat": 50.9333,
    "lng": 6.95,
    "country_id": "DE"
  },
  {
    "id": "c039",
    "name": "Frankfurt",
    "lat": 50.1109,
    "lng": 8.6821,
    "country_id": "DE"
  },
  {
    "id": "c040",
    "name": "Stuttgart",
    "lat": 48.7758,
    "lng": 9.1829,
    "country_id": "DE"
  },
  {
    "id": "c041",
    "name": "Düsseldorf",
    "lat": 51.2217,
    "lng": 6.7762,
    "country_id": "DE"
  },
  {
    "id": "c042",
    "name": "Tokyo",
    "lat": 35.6762,
    "lng": 139.6503,
    "country_id": "JP"
  },
  {
    "id": "c043",
    "name": "Osaka",
    "lat": 34.6937,
    "lng": 135.5023,
    "country_id": "JP"
  },
  {
    "id": "c044",
    "name": "Kyoto",
    "lat": 35.0116,
    "lng": 135.7681,
    "country_id": "JP"
  },
  {
    "id": "c045",
    "name": "Yokohama",
    "lat": 35.4437,
    "lng": 139.638,
    "country_id": "JP"
  },
  {
    "id": "c046",
    "name": "Nagoya",
    "lat": 35.1815,
    "lng": 136.9066,
    "country_id": "JP"
  },
  {
    "id": "c047",
    "name": "Sapporo",
    "lat": 43.0618,
    "lng": 141.3545,
    "country_id": "JP"
  },
  {
    "id": "c048",
    "name": "Hiroshima",
    "lat": 34.3853,
    "lng": 132.4553,
    "country_id": "JP"
  },
  {
    "id": "c049",
    "name": "Beijing",
    "lat": 39.9042,
    "lng": 116.4074,
    "country_id": "CN"
  },
  {
    "id": "c050",
    "name": "Shanghai",
    "lat": 31.2304,
    "lng": 121.4737,
    "country_id": "CN"
  },
  {
    "id": "c051",
    "name": "Guangzhou",
    "lat": 23.1291,
    "lng": 113.2644,
    "country_id": "CN"
  },
  {
    "id": "c052",
    "name": "Shenzhen",
    "lat": 22.5431,
    "lng": 114.0579,
    "country_id": "CN"
  },
  {
    "id": "c053",
    "name": "Chengdu",
    "lat": 30.5728,
    "lng": 104.0668,
    "country_id": "CN"
  },
  {
    "id": "c054",
    "name": "Wuhan",
    "lat": 30.5928,
    "lng": 114.3055,
    "country_id": "CN"
  },
  {
    "id": "c055",
    "name": "Chongqing",
    "lat": 29.4316,
    "lng": 106.9123,
    "country_id": "CN"
  },
  {
    "id": "c056",
    "name": "Xian",
    "lat": 34.3416,
    "lng": 108.9398,
    "country_id": "CN"
  },
  {
    "id": "c057",
    "name": "Hangzhou",
    "lat": 30.2741,
    "lng": 120.1551,
    "country_id": "CN"
  },
  {
    "id": "c058",
    "name": "Mumbai",
    "lat": 19.076,
    "lng": 72.8777,
    "country_id": "IN"
  },
  {
    "id": "c059",
    "name": "Delhi",
    "lat": 28.7041,
    "lng": 77.1025,
    "country_id": "IN"
  },
  {
    "id": "c060",
    "name": "Bangalore",
    "lat": 12.9716,
    "lng": 77.5946,
    "country_id": "IN"
  },
  {
    "id": "c061",
    "name": "Hyderabad",
    "lat": 17.385,
    "lng": 78.4867,
    "country_id": "IN"
  },
  {
    "id": "c062",
    "name": "Chennai",
    "lat": 13.0827,
    "lng": 80.2707,
    "country_id": "IN"
  },
  {
    "id": "c063",
    "name": "Kolkata",
    "lat": 22.5726,
    "lng": 88.3639,
    "country_id": "IN"
  },
  {
    "id": "c064",
    "name": "Pune",
    "lat": 18.5204,
    "lng": 73.8567,
    "country_id": "IN"
  },
  {
    "id": "c065",
    "name": "Ahmedabad",
    "lat": 23.0225,
    "lng": 72.5714,
    "country_id": "IN"
  },
  {
    "id": "c066",
    "name": "Jaipur",
    "lat": 26.9124,
    "lng": 75.7873,
    "country_id": "IN"
  },
  {
    "id": "c067",
    "name": "São Paulo",
    "lat": -23.5505,
    "lng": -46.6333,
    "country_id": "BR"
  },
  {
    "id": "c068",
    "name": "Rio de Janeiro",
    "lat": -22.9068,
    "lng": -43.1729,
    "country_id": "BR"
  },
  {
    "id": "c069",
    "name": "Brasília",
    "lat": -15.8267,
    "lng": -47.9218,
    "country_id": "BR"
  },
  {
    "id": "c070",
    "name": "Salvador",
    "lat": -12.9714,
    "lng": -38.5014,
    "country_id": "BR"
  },
  {
    "id": "c071",
    "name": "Fortaleza",
    "lat": -3.7172,
    "lng": -38.5433,
    "country_id": "BR"
  },
  {
    "id": "c072",
    "name": "Belo Horizonte",
    "lat": -19.9191,
    "lng": -43.9386,
    "country_id": "BR"
  },
  {
    "id": "c073",
    "name": "Curitiba",
    "lat": -25.4284,
    "lng": -49.2733,
    "country_id": "BR"
  },
  {
    "id": "c074",
    "name": "Porto Alegre",
    "lat": -30.0346,
    "lng": -51.2177,
    "country_id": "BR"
  },
  {
    "id": "c075",
    "name": "Moscow",
    "lat": 55.7558,
    "lng": 37.6173,
    "country_id": "RU"
  },
  {
    "id": "c076",
    "name": "Saint Petersburg",
    "lat": 59.9311,
    "lng": 30.3609,
    "country_id": "RU"
  },
  {
    "id": "c077",
    "name": "Novosibirsk",
    "lat": 54.9833,
    "lng": 82.8964,
    "country_id": "RU"
  },
  {
    "id": "c078",
    "name": "Yekaterinburg",
    "lat": 56.8389,
    "lng": 60.6057,
    "country_id": "RU"
  },
  {
    "id": "c079",
    "name": "Kazan",
    "lat": 55.8304,
    "lng": 49.0661,
    "country_id": "RU"
  },
  {
    "id": "c080",
    "name": "Sydney",
    "lat": -33.8688,
    "lng": 151.2093,
    "country_id": "AU"
  },
  {
    "id": "c081",
    "name": "Melbourne",
    "lat": -37.8136,
    "lng": 144.9631,
    "country_id": "AU"
  },
  {
    "id": "c082",
    "name": "Brisbane",
    "lat": -27.4698,
    "lng": 153.0251,
    "country_id": "AU"
  },
  {
    "id": "c083",
    "name": "Perth",
    "lat": -31.9505,
    "lng": 115.8605,
    "country_id": "AU"
  },
  {
    "id": "c084",
    "name": "Adelaide",
    "lat": -34.9285,
    "lng": 138.6007,
    "country_id": "AU"
  },
  {
    "id": "c085",
    "name": "Canberra",
    "lat": -35.2809,
    "lng": 149.13,
    "country_id": "AU"
  },
  {
    "id": "c086",
    "name": "Toronto",
    "lat": 43.6532,
    "lng": -79.3832,
    "country_id": "CA"
  },
  {
    "id": "c087",
    "name": "Montreal",
    "lat": 45.5017,
    "lng": -73.5673,
    "country_id": "CA"
  },
  {
    "id": "c088",
    "name": "Vancouver",
    "lat": 49.2827,
    "lng": -123.1207,
    "country_id": "CA"
  },
  {
    "id": "c089",
    "name": "Calgary",
    "lat": 51.0447,
    "lng": -114.0719,
    "country_id": "CA"
  },
  {
    "id": "c090",
    "name": "Edmonton",
    "lat": 53.5461,
    "lng": -113.4938,
    "country_id": "CA"
  },
  {
    "id": "c091",
    "name": "Ottawa",
    "lat": 45.4215,
    "lng": -75.6972,
    "country_id": "CA"
  },
  {
    "id": "c092",
    "name": "Winnipeg",
    "lat": 49.8951,
    "lng": -97.1384,
    "country_id": "CA"
  },
  {
    "id": "c093",
    "name": "Mexico City",
    "lat": 19.4326,
    "lng": -99.1332,
    "country_id": "MX"
  },
  {
    "id": "c094",
    "name": "Guadalajara",
    "lat": 20.6597,
    "lng": -103.3496,
    "country_id": "MX"
  },
  {
    "id": "c095",
    "name": "Monterrey",
    "lat": 25.6866,
    "lng": -100.3161,
    "country_id": "MX"
  },
  {
    "id": "c096",
    "name": "Cancún",
    "lat": 21.1619,
    "lng": -86.8515,
    "country_id": "MX"
  },
  {
    "id": "c097",
    "name": "Tijuana",
    "lat": 32.5149,
    "lng": -117.0382,
    "country_id": "MX"
  },
  {
    "id": "c098",
    "name": "Madrid",
    "lat": 40.4168,
    "lng": -3.7038,
    "country_id": "ES"
  },
  {
    "id": "c099",
    "name": "Barcelona",
    "lat": 41.3851,
    "lng": 2.1734,
    "country_id": "ES"
  },
  {
    "id": "c100",
    "name": "Valencia",
    "lat": 39.4699,
    "lng": -0.3763,
    "country_id": "ES"
  },
  {
    "id": "c101",
    "name": "Seville",
    "lat": 37.3891,
    "lng": -5.9845,
    "country_id": "ES"
  },
  {
    "id": "c102",
    "name": "Bilbao",
    "lat": 43.263,
    "lng": -2.935,
    "country_id": "ES"
  },
  {
    "id": "c103",
    "name": "Rome",
    "lat": 41.9028,
    "lng": 12.4964,
    "country_id": "IT"
  },
  {
    "id": "c104",
    "name": "Milan",
    "lat": 45.4642,
    "lng": 9.19,
    "country_id": "IT"
  },
  {
    "id": "c105",
    "name": "Naples",
    "lat": 40.8518,
    "lng": 14.2681,
    "country_id": "IT"
  },
  {
    "id": "c106",
    "name": "Florence",
    "lat": 43.7696,
    "lng": 11.2558,
    "country_id": "IT"
  },
  {
    "id": "c107",
    "name": "Venice",
    "lat": 45.4408,
    "lng": 12.3155,
    "country_id": "IT"
  },
  {
    "id": "c108",
    "name": "Turin",
    "lat": 45.0703,
    "lng": 7.6869,
    "country_id": "IT"
  },
  {
    "id": "c109",
    "name": "Amsterdam",
    "lat": 52.3676,
    "lng": 4.9041,
    "country_id": "NL"
  },
  {
    "id": "c110",
    "name": "Rotterdam",
    "lat": 51.9244,
    "lng": 4.4777,
    "country_id": "NL"
  },
  {
    "id": "c111",
    "name": "The Hague",
    "lat": 52.0705,
    "lng": 4.3007,
    "country_id": "NL"
  },
  {
    "id": "c112",
    "name": "Utrecht",
    "lat": 52.0907,
    "lng": 5.1214,
    "country_id": "NL"
  },
  {
    "id": "c113",
    "name": "Seoul",
    "lat": 37.5665,
    "lng": 126.978,
    "country_id": "KR"
  },
  {
    "id": "c114",
    "name": "Busan",
    "lat": 35.1796,
    "lng": 129.0756,
    "country_id": "KR"
  },
  {
    "id": "c115",
    "name": "Incheon",
    "lat": 37.4563,
    "lng": 126.7052,
    "country_id": "KR"
  },
  {
    "id": "c116",
    "name": "Daegu",
    "lat": 35.8714,
    "lng": 128.6014,
    "country_id": "KR"
  },
  {
    "id": "c117",
    "name": "Johannesburg",
    "lat": -26.2041,
    "lng": 28.0473,
    "country_id": "ZA"
  },
  {
    "id": "c118",
    "name": "Cape Town",
    "lat": -33.9249,
    "lng": 18.4241,
    "country_id": "ZA"
  },
  {
    "id": "c119",
    "name": "Durban",
    "lat": -29.8587,
    "lng": 31.0218,
    "country_id": "ZA"
  },
  {
    "id": "c120",
    "name": "Pretoria",
    "lat": -25.7479,
    "lng": 28.2293,
    "country_id": "ZA"
  },
  {
    "id": "c121",
    "name": "Buenos Aires",
    "lat": -34.6037,
    "lng": -58.3816,
    "country_id": "AR"
  },
  {
    "id": "c122",
    "name": "Córdoba",
    "lat": -31.4201,
    "lng": -64.1888,
    "country_id": "AR"
  },
  {
    "id": "c123",
    "name": "Rosario",
    "lat": -32.9442,
    "lng": -60.6505,
    "country_id": "AR"
  },
  {
    "id": "c124",
    "name": "Mendoza",
    "lat": -32.8908,
    "lng": -68.8272,
    "country_id": "AR"
  },
  {
    "id": "c125",
    "name": "Istanbul",
    "lat": 41.0082,
    "lng": 28.9784,
    "country_id": "TR"
  },
  {
    "id": "c126",
    "name": "Ankara",
    "lat": 39.9334,
    "lng": 32.8597,
    "country_id": "TR"
  },
  {
    "id": "c127",
    "name": "Izmir",
    "lat": 38.4192,
    "lng": 27.1287,
    "country_id": "TR"
  },
  {
    "id": "c128",
    "name": "Bursa",
    "lat": 40.1885,
    "lng": 29.061,
    "country_id": "TR"
  },
  {
    "id": "c129",
    "name": "Cairo",
    "lat": 30.0444,
    "lng": 31.2357,
    "country_id": "EG"
  },
  {
    "id": "c130",
    "name": "Alexandria",
    "lat": 31.2001,
    "lng": 29.9187,
    "country_id": "EG"
  },
  {
    "id": "c131",
    "name": "Giza",
    "lat": 30.0131,
    "lng": 31.2089,
    "country_id": "EG"
  },
  {
    "id": "c132",
    "name": "Dubai",
    "lat": 25.2048,
    "lng": 55.2708,
    "country_id": "AE"
  },
  {
    "id": "c133",
    "name": "Abu Dhabi",
    "lat": 24.4539,
    "lng": 54.3773,
    "country_id": "AE"
  },
  {
    "id": "c134",
    "name": "Sharjah",
    "lat": 25.3463,
    "lng": 55.4209,
    "country_id": "AE"
  },
  {
    "id": "c135",
    "name": "Riyadh",
    "lat": 24.7136,
    "lng": 46.6753,
    "country_id": "SA"
  },
  {
    "id": "c136",
    "name": "Jeddah",
    "lat": 21.5433,
    "lng": 39.1728,
    "country_id": "SA"
  },
  {
    "id": "c137",
    "name": "Mecca",
    "lat": 21.3891,
    "lng": 39.8579,
    "country_id": "SA"
  },
  {
    "id": "c138",
    "name": "Lagos",
    "lat": 6.5244,
    "lng": 3.3792,
    "country_id": "NG"
  },
  {
    "id": "c139",
    "name": "Abuja",
    "lat": 9.0765,
    "lng": 7.3986,
    "country_id": "NG"
  },
  {
    "id": "c140",
    "name": "Kano",
    "lat": 12.0022,
    "lng": 8.592,
    "country_id": "NG"
  },
  {
    "id": "c141",
    "name": "Ibadan",
    "lat": 7.3775,
    "lng": 3.947,
    "country_id": "NG"
  },
  {
    "id": "c142",
    "name": "Nairobi",
    "lat": -1.2921,
    "lng": 36.8219,
    "country_id": "KE"
  },
  {
    "id": "c143",
    "name": "Mombasa",
    "lat": -4.0435,
    "lng": 39.6682,
    "country_id": "KE"
  },
  {
    "id": "c144",
    "name": "Addis Ababa",
    "lat": 9.032,
    "lng": 38.7469,
    "country_id": "ET"
  },
  {
    "id": "c145",
    "name": "Casablanca",
    "lat": 33.5731,
    "lng": -7.5898,
    "country_id": "MA"
  },
  {
    "id": "c146",
    "name": "Rabat",
    "lat": 34.0209,
    "lng": -6.8416,
    "country_id": "MA"
  },
  {
    "id": "c147",
    "name": "Marrakech",
    "lat": 31.6295,
    "lng": -7.9811,
    "country_id": "MA"
  },
  {
    "id": "c148",
    "name": "Fes",
    "lat": 34.0181,
    "lng": -5.0078,
    "country_id": "MA"
  },
  {
    "id": "c149",
    "name": "Accra",
    "lat": 5.6037,
    "lng": -0.187,
    "country_id": "GH"
  },
  {
    "id": "c150",
    "name": "Dar es Salaam",
    "lat": -6.7924,
    "lng": 39.2083,
    "country_id": "TZ"
  },
  {
    "id": "c151",
    "name": "Jakarta",
    "lat": -6.2088,
    "lng": 106.8456,
    "country_id": "ID"
  },
  {
    "id": "c152",
    "name": "Surabaya",
    "lat": -7.2575,
    "lng": 112.7521,
    "country_id": "ID"
  },
  {
    "id": "c153",
    "name": "Bandung",
    "lat": -6.9175,
    "lng": 107.6191,
    "country_id": "ID"
  },
  {
    "id": "c154",
    "name": "Medan",
    "lat": 3.5952,
    "lng": 98.6722,
    "country_id": "ID"
  },
  {
    "id": "c155",
    "name": "Bali",
    "lat": -8.3405,
    "lng": 115.092,
    "country_id": "ID"
  },
  {
    "id": "c156",
    "name": "Manila",
    "lat": 14.5995,
    "lng": 120.9842,
    "country_id": "PH"
  },
  {
    "id": "c157",
    "name": "Cebu",
    "lat": 10.3157,
    "lng": 123.8854,
    "country_id": "PH"
  },
  {
    "id": "c158",
    "name": "Davao",
    "lat": 7.1907,
    "lng": 125.4553,
    "country_id": "PH"
  },
  {
    "id": "c159",
    "name": "Ho Chi Minh City",
    "lat": 10.8231,
    "lng": 106.6297,
    "country_id": "VN"
  },
  {
    "id": "c160",
    "name": "Hanoi",
    "lat": 21.0285,
    "lng": 105.8542,
    "country_id": "VN"
  },
  {
    "id": "c161",
    "name": "Da Nang",
    "lat": 16.0544,
    "lng": 108.2022,
    "country_id": "VN"
  },
  {
    "id": "c162",
    "name": "Bangkok",
    "lat": 13.7563,
    "lng": 100.5018,
    "country_id": "TH"
  },
  {
    "id": "c163",
    "name": "Chiang Mai",
    "lat": 18.7883,
    "lng": 98.9853,
    "country_id": "TH"
  },
  {
    "id": "c164",
    "name": "Phuket",
    "lat": 7.8804,
    "lng": 98.3923,
    "country_id": "TH"
  },
  {
    "id": "c165",
    "name": "Kuala Lumpur",
    "lat": 3.139,
    "lng": 101.6869,
    "country_id": "MY"
  },
  {
    "id": "c166",
    "name": "Penang",
    "lat": 5.4141,
    "lng": 100.3288,
    "country_id": "MY"
  },
  {
    "id": "c167",
    "name": "Johor Bahru",
    "lat": 1.4927,
    "lng": 103.7414,
    "country_id": "MY"
  },
  {
    "id": "c168",
    "name": "Singapore",
    "lat": 1.3521,
    "lng": 103.8198,
    "country_id": "SG"
  },
  {
    "id": "c169",
    "name": "Karachi",
    "lat": 24.8607,
    "lng": 67.0011,
    "country_id": "PK"
  },
  {
    "id": "c170",
    "name": "Lahore",
    "lat": 31.5204,
    "lng": 74.3587,
    "country_id": "PK"
  },
  {
    "id": "c171",
    "name": "Islamabad",
    "lat": 33.7294,
    "lng": 73.0931,
    "country_id": "PK"
  },
  {
    "id": "c172",
    "name": "Dhaka",
    "lat": 23.8103,
    "lng": 90.4125,
    "country_id": "BD"
  },
  {
    "id": "c173",
    "name": "Chittagong",
    "lat": 22.3569,
    "lng": 91.7832,
    "country_id": "BD"
  },
  {
    "id": "c174",
    "name": "Colombo",
    "lat": 6.9271,
    "lng": 79.8612,
    "country_id": "LK"
  },
  {
    "id": "c175",
    "name": "Kathmandu",
    "lat": 27.7172,
    "lng": 85.324,
    "country_id": "NP"
  },
  {
    "id": "c176",
    "name": "Yangon",
    "lat": 16.8661,
    "lng": 96.1951,
    "country_id": "MM"
  },
  {
    "id": "c177",
    "name": "Mandalay",
    "lat": 21.9588,
    "lng": 96.0891,
    "country_id": "MM"
  },
  {
    "id": "c178",
    "name": "Phnom Penh",
    "lat": 11.5564,
    "lng": 104.9282,
    "country_id": "KH"
  },
  {
    "id": "c179",
    "name": "Siem Reap",
    "lat": 13.3671,
    "lng": 103.8448,
    "country_id": "KH"
  },
  {
    "id": "c180",
    "name": "Tehran",
    "lat": 35.6892,
    "lng": 51.389,
    "country_id": "IR"
  },
  {
    "id": "c181",
    "name": "Isfahan",
    "lat": 32.6546,
    "lng": 51.668,
    "country_id": "IR"
  },
  {
    "id": "c182",
    "name": "Shiraz",
    "lat": 29.5918,
    "lng": 52.5837,
    "country_id": "IR"
  },
  {
    "id": "c183",
    "name": "Baghdad",
    "lat": 33.3152,
    "lng": 44.3661,
    "country_id": "IQ"
  },
  {
    "id": "c184",
    "name": "Basra",
    "lat": 30.5085,
    "lng": 47.7804,
    "country_id": "IQ"
  },
  {
    "id": "c185",
    "name": "Tel Aviv",
    "lat": 32.0853,
    "lng": 34.7818,
    "country_id": "IL"
  },
  {
    "id": "c186",
    "name": "Jerusalem",
    "lat": 31.7683,
    "lng": 35.2137,
    "country_id": "IL"
  },
  {
    "id": "c187",
    "name": "Haifa",
    "lat": 32.794,
    "lng": 34.9896,
    "country_id": "IL"
  },
  {
    "id": "c188",
    "name": "Amman",
    "lat": 31.9539,
    "lng": 35.9106,
    "country_id": "JO"
  },
  {
    "id": "c189",
    "name": "Beirut",
    "lat": 33.8938,
    "lng": 35.5018,
    "country_id": "LB"
  },
  {
    "id": "c190",
    "name": "Kuwait City",
    "lat": 29.3759,
    "lng": 47.9774,
    "country_id": "KW"
  },
  {
    "id": "c191",
    "name": "Doha",
    "lat": 25.2854,
    "lng": 51.531,
    "country_id": "QA"
  },
  {
    "id": "c192",
    "name": "Muscat",
    "lat": 23.588,
    "lng": 58.3829,
    "country_id": "OM"
  },
  {
    "id": "c193",
    "name": "Almaty",
    "lat": 43.222,
    "lng": 76.8512,
    "country_id": "KZ"
  },
  {
    "id": "c194",
    "name": "Astana",
    "lat": 51.1801,
    "lng": 71.446,
    "country_id": "KZ"
  },
  {
    "id": "c195",
    "name": "Tashkent",
    "lat": 41.2995,
    "lng": 69.2401,
    "country_id": "UZ"
  },
  {
    "id": "c196",
    "name": "Samarkand",
    "lat": 39.627,
    "lng": 66.975,
    "country_id": "UZ"
  },
  {
    "id": "c197",
    "name": "Tbilisi",
    "lat": 41.7151,
    "lng": 44.8271,
    "country_id": "GE"
  },
  {
    "id": "c198",
    "name": "Yerevan",
    "lat": 40.1872,
    "lng": 44.5152,
    "country_id": "AM"
  },
  {
    "id": "c199",
    "name": "Baku",
    "lat": 40.4093,
    "lng": 49.8671,
    "country_id": "AZ"
  },
  {
    "id": "c200",
    "name": "Kyiv",
    "lat": 50.4501,
    "lng": 30.5234,
    "country_id": "UA"
  },
  {
    "id": "c201",
    "name": "Kharkiv",
    "lat": 49.9935,
    "lng": 36.2304,
    "country_id": "UA"
  },
  {
    "id": "c202",
    "name": "Odessa",
    "lat": 46.4825,
    "lng": 30.7233,
    "country_id": "UA"
  },
  {
    "id": "c203",
    "name": "Lviv",
    "lat": 49.8397,
    "lng": 24.0297,
    "country_id": "UA"
  },
  {
    "id": "c204",
    "name": "Warsaw",
    "lat": 52.2297,
    "lng": 21.0122,
    "country_id": "PL"
  },
  {
    "id": "c205",
    "name": "Kraków",
    "lat": 50.0647,
    "lng": 19.945,
    "country_id": "PL"
  },
  {
    "id": "c206",
    "name": "Wrocław",
    "lat": 51.1079,
    "lng": 17.0385,
    "country_id": "PL"
  },
  {
    "id": "c207",
    "name": "Gdańsk",
    "lat": 54.352,
    "lng": 18.6466,
    "country_id": "PL"
  },
  {
    "id": "c208",
    "name": "Prague",
    "lat": 50.0755,
    "lng": 14.4378,
    "country_id": "CZ"
  },
  {
    "id": "c209",
    "name": "Brno",
    "lat": 49.1951,
    "lng": 16.6068,
    "country_id": "CZ"
  },
  {
    "id": "c210",
    "name": "Budapest",
    "lat": 47.4979,
    "lng": 19.0402,
    "country_id": "HU"
  },
  {
    "id": "c211",
    "name": "Bucharest",
    "lat": 44.4268,
    "lng": 26.1025,
    "country_id": "RO"
  },
  {
    "id": "c212",
    "name": "Cluj-Napoca",
    "lat": 46.7712,
    "lng": 23.6236,
    "country_id": "RO"
  },
  {
    "id": "c213",
    "name": "Sofia",
    "lat": 42.6977,
    "lng": 23.3219,
    "country_id": "BG"
  },
  {
    "id": "c214",
    "name": "Belgrade",
    "lat": 44.7866,
    "lng": 20.4489,
    "country_id": "RS"
  },
  {
    "id": "c215",
    "name": "Zagreb",
    "lat": 45.815,
    "lng": 15.9819,
    "country_id": "HR"
  },
  {
    "id": "c216",
    "name": "Split",
    "lat": 43.5081,
    "lng": 16.4402,
    "country_id": "HR"
  },
  {
    "id": "c217",
    "name": "Dubrovnik",
    "lat": 42.6507,
    "lng": 18.0944,
    "country_id": "HR"
  },
  {
    "id": "c218",
    "name": "Athens",
    "lat": 37.9838,
    "lng": 23.7275,
    "country_id": "GR"
  },
  {
    "id": "c219",
    "name": "Thessaloniki",
    "lat": 40.6401,
    "lng": 22.9444,
    "country_id": "GR"
  },
  {
    "id": "c220",
    "name": "Stockholm",
    "lat": 59.3293,
    "lng": 18.0686,
    "country_id": "SE"
  },
  {
    "id": "c221",
    "name": "Gothenburg",
    "lat": 57.7089,
    "lng": 11.9746,
    "country_id": "SE"
  },
  {
    "id": "c222",
    "name": "Malmö",
    "lat": 55.605,
    "lng": 13.0038,
    "country_id": "SE"
  },
  {
    "id": "c223",
    "name": "Oslo",
    "lat": 59.9139,
    "lng": 10.7522,
    "country_id": "NO"
  },
  {
    "id": "c224",
    "name": "Bergen",
    "lat": 60.3913,
    "lng": 5.3221,
    "country_id": "NO"
  },
  {
    "id": "c225",
    "name": "Copenhagen",
    "lat": 55.6761,
    "lng": 12.5683,
    "country_id": "DK"
  },
  {
    "id": "c226",
    "name": "Helsinki",
    "lat": 60.1699,
    "lng": 24.9384,
    "country_id": "FI"
  },
  {
    "id": "c227",
    "name": "Zurich",
    "lat": 47.3769,
    "lng": 8.5417,
    "country_id": "CH"
  },
  {
    "id": "c228",
    "name": "Geneva",
    "lat": 46.2044,
    "lng": 6.1432,
    "country_id": "CH"
  },
  {
    "id": "c229",
    "name": "Basel",
    "lat": 47.5596,
    "lng": 7.5886,
    "country_id": "CH"
  },
  {
    "id": "c230",
    "name": "Bern",
    "lat": 46.948,
    "lng": 7.4474,
    "country_id": "CH"
  },
  {
    "id": "c231",
    "name": "Vienna",
    "lat": 48.2082,
    "lng": 16.3738,
    "country_id": "AT"
  },
  {
    "id": "c232",
    "name": "Salzburg",
    "lat": 47.8095,
    "lng": 13.055,
    "country_id": "AT"
  },
  {
    "id": "c233",
    "name": "Innsbruck",
    "lat": 47.2692,
    "lng": 11.4041,
    "country_id": "AT"
  },
  {
    "id": "c234",
    "name": "Brussels",
    "lat": 50.8503,
    "lng": 4.3517,
    "country_id": "BE"
  },
  {
    "id": "c235",
    "name": "Antwerp",
    "lat": 51.2194,
    "lng": 4.4025,
    "country_id": "BE"
  },
  {
    "id": "c236",
    "name": "Bruges",
    "lat": 51.2093,
    "lng": 3.2247,
    "country_id": "BE"
  },
  {
    "id": "c237",
    "name": "Lisbon",
    "lat": 38.7169,
    "lng": -9.1395,
    "country_id": "PT"
  },
  {
    "id": "c238",
    "name": "Porto",
    "lat": 41.1579,
    "lng": -8.6291,
    "country_id": "PT"
  },
  {
    "id": "c239",
    "name": "Dublin",
    "lat": 53.3498,
    "lng": -6.2603,
    "country_id": "IE"
  },
  {
    "id": "c240",
    "name": "Cork",
    "lat": 51.8985,
    "lng": -8.4756,
    "country_id": "IE"
  },
  {
    "id": "c241",
    "name": "Reykjavik",
    "lat": 64.1355,
    "lng": -21.8954,
    "country_id": "IS"
  },
  {
    "id": "c242",
    "name": "Auckland",
    "lat": -36.8509,
    "lng": 174.7645,
    "country_id": "NZ"
  },
  {
    "id": "c243",
    "name": "Wellington",
    "lat": -41.2865,
    "lng": 174.7762,
    "country_id": "NZ"
  },
  {
    "id": "c244",
    "name": "Christchurch",
    "lat": -43.5321,
    "lng": 172.6362,
    "country_id": "NZ"
  },
  {
    "id": "c245",
    "name": "Bogotá",
    "lat": 4.711,
    "lng": -74.0721,
    "country_id": "CO"
  },
  {
    "id": "c246",
    "name": "Medellín",
    "lat": 6.2442,
    "lng": -75.5812,
    "country_id": "CO"
  },
  {
    "id": "c247",
    "name": "Cali",
    "lat": 3.4516,
    "lng": -76.532,
    "country_id": "CO"
  },
  {
    "id": "c248",
    "name": "Cartagena",
    "lat": 10.391,
    "lng": -75.4794,
    "country_id": "CO"
  },
  {
    "id": "c249",
    "name": "Lima",
    "lat": -12.0464,
    "lng": -77.0428,
    "country_id": "PE"
  },
  {
    "id": "c250",
    "name": "Cusco",
    "lat": -13.532,
    "lng": -71.9675,
    "country_id": "PE"
  },
  {
    "id": "c251",
    "name": "Santiago",
    "lat": -33.4489,
    "lng": -70.6693,
    "country_id": "CL"
  },
  {
    "id": "c252",
    "name": "Valparaíso",
    "lat": -33.0472,
    "lng": -71.6127,
    "country_id": "CL"
  },
  {
    "id": "c253",
    "name": "Caracas",
    "lat": 10.4806,
    "lng": -66.9036,
    "country_id": "VE"
  },
  {
    "id": "c254",
    "name": "Maracaibo",
    "lat": 10.6666,
    "lng": -71.6124,
    "country_id": "VE"
  },
  {
    "id": "c255",
    "name": "Quito",
    "lat": -0.1807,
    "lng": -78.4678,
    "country_id": "EC"
  },
  {
    "id": "c256",
    "name": "Guayaquil",
    "lat": -2.1709,
    "lng": -79.9224,
    "country_id": "EC"
  },
  {
    "id": "c257",
    "name": "La Paz",
    "lat": -16.5,
    "lng": -68.1193,
    "country_id": "BO"
  },
  {
    "id": "c258",
    "name": "Santa Cruz",
    "lat": -17.8146,
    "lng": -63.1561,
    "country_id": "BO"
  },
  {
    "id": "c259",
    "name": "Asunción",
    "lat": -25.2867,
    "lng": -57.647,
    "country_id": "PY"
  },
  {
    "id": "c260",
    "name": "Montevideo",
    "lat": -34.9011,
    "lng": -56.1645,
    "country_id": "UY"
  },
  {
    "id": "c261",
    "name": "Havana",
    "lat": 23.1136,
    "lng": -82.3666,
    "country_id": "CU"
  },
  {
    "id": "c262",
    "name": "Santo Domingo",
    "lat": 18.4861,
    "lng": -69.9312,
    "country_id": "DO"
  },
  {
    "id": "c263",
    "name": "Guatemala City",
    "lat": 14.6349,
    "lng": -90.5069,
    "country_id": "GT"
  },
  {
    "id": "c264",
    "name": "San José",
    "lat": 9.9281,
    "lng": -84.0907,
    "country_id": "CR"
  },
  {
    "id": "c265",
    "name": "Panama City",
    "lat": 8.9943,
    "lng": -79.5188,
    "country_id": "PA"
  },
  {
    "id": "c266",
    "name": "Taipei",
    "lat": 25.033,
    "lng": 121.5654,
    "country_id": "TW"
  },
  {
    "id": "c267",
    "name": "Kaohsiung",
    "lat": 22.6273,
    "lng": 120.3014,
    "country_id": "TW"
  },
  {
    "id": "c268",
    "name": "Hong Kong",
    "lat": 22.3193,
    "lng": 114.1694,
    "country_id": "CN"
  },
  {
    "id": "c269",
    "name": "Ulaanbaatar",
    "lat": 47.8864,
    "lng": 106.9057,
    "country_id": "MN"
  },
  {
    "id": "c270",
    "name": "Dakar",
    "lat": 14.7167,
    "lng": -17.4677,
    "country_id": "SN"
  },
  {
    "id": "c271",
    "name": "Abidjan",
    "lat": 5.36,
    "lng": -4.0083,
    "country_id": "CI"
  },
  {
    "id": "c272",
    "name": "Douala",
    "lat": 4.0511,
    "lng": 9.7679,
    "country_id": "CM"
  },
  {
    "id": "c273",
    "name": "Yaoundé",
    "lat": 3.848,
    "lng": 11.5021,
    "country_id": "CM"
  },
  {
    "id": "c274",
    "name": "Luanda",
    "lat": -8.8368,
    "lng": 13.2343,
    "country_id": "AO"
  },
  {
    "id": "c275",
    "name": "Harare",
    "lat": -17.8252,
    "lng": 31.0335,
    "country_id": "ZW"
  },
  {
    "id": "c276",
    "name": "Lusaka",
    "lat": -15.4167,
    "lng": 28.2833,
    "country_id": "ZM"
  },
  {
    "id": "c277",
    "name": "Kampala",
    "lat": 0.3476,
    "lng": 32.5825,
    "country_id": "UG"
  },
  {
    "id": "c278",
    "name": "Kigali",
    "lat": -1.9441,
    "lng": 30.0619,
    "country_id": "RW"
  },
  {
    "id": "c279",
    "name": "Tunis",
    "lat": 36.819,
    "lng": 10.1658,
    "country_id": "TN"
  },
  {
    "id": "c280",
    "name": "Algiers",
    "lat": 36.7372,
    "lng": 3.0863,
    "country_id": "DZ"
  },
  {
    "id": "c281",
    "name": "Oran",
    "lat": 35.6969,
    "lng": -0.6331,
    "country_id": "DZ"
  },
  {
    "id": "c282",
    "name": "Tripoli",
    "lat": 32.902,
    "lng": 13.18,
    "country_id": "LY"
  },
  {
    "id": "c283",
    "name": "Khartoum",
    "lat": 15.5007,
    "lng": 32.5599,
    "country_id": "SD"
  },
  {
    "id": "c284",
    "name": "Maputo",
    "lat": -25.9692,
    "lng": 32.5732,
    "country_id": "MZ"
  },
  {
    "id": "c285",
    "name": "Antananarivo",
    "lat": -18.9137,
    "lng": 47.5361,
    "country_id": "MG"
  },
  {
    "id": "c286",
    "name": "Minsk",
    "lat": 53.9045,
    "lng": 27.5615,
    "country_id": "BY"
  },
  {
    "id": "c287",
    "name": "Chișinău",
    "lat": 47.0105,
    "lng": 28.8638,
    "country_id": "MD"
  },
  {
    "id": "c288",
    "name": "Vilnius",
    "lat": 54.6872,
    "lng": 25.2797,
    "country_id": "LT"
  },
  {
    "id": "c289",
    "name": "Riga",
    "lat": 56.946,
    "lng": 24.1059,
    "country_id": "LV"
  },
  {
    "id": "c290",
    "name": "Tallinn",
    "lat": 59.437,
    "lng": 24.7536,
    "country_id": "EE"
  },
  {
    "id": "c291",
    "name": "Bratislava",
    "lat": 48.1486,
    "lng": 17.1077,
    "country_id": "SK"
  },
  {
    "id": "c292",
    "name": "Ljubljana",
    "lat": 46.0569,
    "lng": 14.5058,
    "country_id": "SI"
  },
  {
    "id": "c293",
    "name": "Sarajevo",
    "lat": 43.8563,
    "lng": 18.4131,
    "country_id": "BA"
  },
  {
    "id": "c294",
    "name": "Tirana",
    "lat": 41.3275,
    "lng": 19.8187,
    "country_id": "AL"
  },
  {
    "id": "c295",
    "name": "Skopje",
    "lat": 41.9973,
    "lng": 21.428,
    "country_id": "MK"
  },
  {
    "id": "c296",
    "name": "Podgorica",
    "lat": 42.4304,
    "lng": 19.2594,
    "country_id": "ME"
  },
  {
    "id": "c297",
    "name": "Nicosia",
    "lat": 35.1856,
    "lng": 33.3823,
    "country_id": "CY"
  },
  {
    "id": "c298",
    "name": "Limassol",
    "lat": 34.6786,
    "lng": 33.0413,
    "country_id": "CY"
  },
  {
    "id": "c299",
    "name": "Valletta",
    "lat": 35.8997,
    "lng": 14.5147,
    "country_id": "MT"
  },
  {
    "id": "c300",
    "name": "Luxembourg City",
    "lat": 49.6116,
    "lng": 6.1319,
    "country_id": "LU"
  },
  {
    "id": "c301",
    "name": "Kandy",
    "lat": 7.2906,
    "lng": 80.6337,
    "country_id": "LK"
  },
  {
    "id": "c302",
    "name": "Naypyidaw",
    "lat": 19.7633,
    "lng": 96.0785,
    "country_id": "MM"
  },
  {
    "id": "c303",
    "name": "Vientiane",
    "lat": 17.9757,
    "lng": 102.6331,
    "country_id": "LA"
  },
  {
    "id": "c304",
    "name": "Suva",
    "lat": -18.1416,
    "lng": 178.4419,
    "country_id": "FJ"
  },
  {
    "id": "c305",
    "name": "Port Moresby",
    "lat": -9.4438,
    "lng": 147.1803,
    "country_id": "PG"
  },
  {
    "id": "c306",
    "name": "Bandar Seri Begawan",
    "lat": 4.9031,
    "lng": 114.9398,
    "country_id": "BN"
  },
  {
    "id": "c307",
    "name": "Dili",
    "lat": -8.5569,
    "lng": 125.5789,
    "country_id": "TL"
  },
  {
    "id": "c308",
    "name": "Kingston",
    "lat": 17.997,
    "lng": -76.7936,
    "country_id": "JM"
  },
  {
    "id": "c309",
    "name": "Port of Spain",
    "lat": 10.6549,
    "lng": -61.5019,
    "country_id": "TT"
  },
  {
    "id": "c310",
    "name": "Tegucigalpa",
    "lat": 14.0818,
    "lng": -87.2068,
    "country_id": "HN"
  },
  {
    "id": "c311",
    "name": "San Salvador",
    "lat": 13.6929,
    "lng": -89.2182,
    "country_id": "SV"
  },
  {
    "id": "c312",
    "name": "Managua",
    "lat": 12.1149,
    "lng": -86.2362,
    "country_id": "NI"
  },
  {
    "id": "c313",
    "name": "Belmopan",
    "lat": 17.2514,
    "lng": -88.759,
    "country_id": "BZ"
  },
  {
    "id": "c314",
    "name": "Georgetown",
    "lat": 6.8013,
    "lng": -58.1553,
    "country_id": "GY"
  },
  {
    "id": "c315",
    "name": "Paramaribo",
    "lat": 5.852,
    "lng": -55.2038,
    "country_id": "SR"
  },
  {
    "id": "c316",
    "name": "Sucre",
    "lat": -19.0196,
    "lng": -65.2619,
    "country_id": "BO"
  },
  {
    "id": "c317",
    "name": "Islamabad",
    "lat": 33.7294,
    "lng": 73.0931,
    "country_id": "PK"
  },
  {
    "id": "c318",
    "name": "Faisalabad",
    "lat": 31.4504,
    "lng": 73.135,
    "country_id": "PK"
  },
  {
    "id": "c319",
    "name": "Peshawar",
    "lat": 34.0151,
    "lng": 71.5249,
    "country_id": "PK"
  },
  {
    "id": "c320",
    "name": "Agra",
    "lat": 27.1767,
    "lng": 78.0081,
    "country_id": "IN"
  },
  {
    "id": "c321",
    "name": "Varanasi",
    "lat": 25.3176,
    "lng": 82.9739,
    "country_id": "IN"
  },
  {
    "id": "c322",
    "name": "Amritsar",
    "lat": 31.634,
    "lng": 74.8723,
    "country_id": "IN"
  },
  {
    "id": "c323",
    "name": "Surat",
    "lat": 21.1702,
    "lng": 72.8311,
    "country_id": "IN"
  },
  {
    "id": "c324",
    "name": "Lucknow",
    "lat": 26.8467,
    "lng": 80.9462,
    "country_id": "IN"
  },
  {
    "id": "c325",
    "name": "Kanpur",
    "lat": 26.4499,
    "lng": 80.3319,
    "country_id": "IN"
  },
  {
    "id": "c326",
    "name": "Nagpur",
    "lat": 21.1458,
    "lng": 79.0882,
    "country_id": "IN"
  },
  {
    "id": "c327",
    "name": "Patna",
    "lat": 25.5941,
    "lng": 85.1376,
    "country_id": "IN"
  },
  {
    "id": "c328",
    "name": "Indore",
    "lat": 22.7196,
    "lng": 75.8577,
    "country_id": "IN"
  },
  {
    "id": "c329",
    "name": "Nanjing",
    "lat": 32.0603,
    "lng": 118.7969,
    "country_id": "CN"
  },
  {
    "id": "c330",
    "name": "Tianjin",
    "lat": 39.3434,
    "lng": 117.3616,
    "country_id": "CN"
  },
  {
    "id": "c331",
    "name": "Qingdao",
    "lat": 36.0671,
    "lng": 120.3826,
    "country_id": "CN"
  },
  {
    "id": "c332",
    "name": "Dalian",
    "lat": 38.914,
    "lng": 121.6147,
    "country_id": "CN"
  },
  {
    "id": "c333",
    "name": "Kunming",
    "lat": 24.8801,
    "lng": 102.8329,
    "country_id": "CN"
  },
  {
    "id": "c334",
    "name": "Harbin",
    "lat": 45.8038,
    "lng": 126.5349,
    "country_id": "CN"
  },
  {
    "id": "c335",
    "name": "Suzhou",
    "lat": 31.299,
    "lng": 120.5853,
    "country_id": "CN"
  },
  {
    "id": "c336",
    "name": "Zhengzhou",
    "lat": 34.7466,
    "lng": 113.6253,
    "country_id": "CN"
  },
  {
    "id": "c337",
    "name": "Wuxi",
    "lat": 31.5688,
    "lng": 120.2888,
    "country_id": "CN"
  },
  {
    "id": "c338",
    "name": "Changsha",
    "lat": 28.2278,
    "lng": 112.9388,
    "country_id": "CN"
  },
  {
    "id": "c339",
    "name": "Fukuoka",
    "lat": 33.5904,
    "lng": 130.4017,
    "country_id": "JP"
  },
  {
    "id": "c340",
    "name": "Kobe",
    "lat": 34.6901,
    "lng": 135.1956,
    "country_id": "JP"
  },
  {
    "id": "c341",
    "name": "Sendai",
    "lat": 38.2682,
    "lng": 140.8694,
    "country_id": "JP"
  },
  {
    "id": "c342",
    "name": "Naha",
    "lat": 26.2124,
    "lng": 127.6809,
    "country_id": "JP"
  },
  {
    "id": "c343",
    "name": "Suwon",
    "lat": 37.2636,
    "lng": 127.0286,
    "country_id": "KR"
  },
  {
    "id": "c344",
    "name": "Gwangju",
    "lat": 35.1595,
    "lng": 126.8526,
    "country_id": "KR"
  },
  {
    "id": "c345",
    "name": "Daejon",
    "lat": 36.3504,
    "lng": 127.3845,
    "country_id": "KR"
  },
  {
    "id": "c346",
    "name": "Izmir",
    "lat": 38.4192,
    "lng": 27.1287,
    "country_id": "TR"
  },
  {
    "id": "c347",
    "name": "Antalya",
    "lat": 36.8841,
    "lng": 30.7056,
    "country_id": "TR"
  },
  {
    "id": "c348",
    "name": "Konya",
    "lat": 37.8746,
    "lng": 32.4932,
    "country_id": "TR"
  },
  {
    "id": "c349",
    "name": "Adana",
    "lat": 36.9914,
    "lng": 35.3308,
    "country_id": "TR"
  },
  {
    "id": "c350",
    "name": "Gaziantep",
    "lat": 37.0662,
    "lng": 37.3833,
    "country_id": "TR"
  },
  {
    "id": "c351",
    "name": "Medina",
    "lat": 24.5247,
    "lng": 39.5692,
    "country_id": "SA"
  },
  {
    "id": "c352",
    "name": "Dammam",
    "lat": 26.4207,
    "lng": 50.0888,
    "country_id": "SA"
  },
  {
    "id": "c353",
    "name": "Surabaya",
    "lat": -7.2575,
    "lng": 112.7521,
    "country_id": "ID"
  },
  {
    "id": "c354",
    "name": "Yogyakarta",
    "lat": -7.7956,
    "lng": 110.3695,
    "country_id": "ID"
  },
  {
    "id": "c355",
    "name": "Makassar",
    "lat": -5.1477,
    "lng": 119.4327,
    "country_id": "ID"
  },
  {
    "id": "c356",
    "name": "Palembang",
    "lat": -2.9761,
    "lng": 104.7754,
    "country_id": "ID"
  },
  {
    "id": "c357",
    "name": "Semarang",
    "lat": -6.9932,
    "lng": 110.4203,
    "country_id": "ID"
  },
  {
    "id": "c358",
    "name": "Ho Chi Minh extras",
    "lat": 10.7769,
    "lng": 106.7009,
    "country_id": "VN"
  },
  {
    "id": "c359",
    "name": "Hue",
    "lat": 16.4637,
    "lng": 107.5909,
    "country_id": "VN"
  },
  {
    "id": "c360",
    "name": "Hai Phong",
    "lat": 20.8449,
    "lng": 106.6881,
    "country_id": "VN"
  },
  {
    "id": "c361",
    "name": "Chiang Rai",
    "lat": 19.9105,
    "lng": 99.8406,
    "country_id": "TH"
  },
  {
    "id": "c362",
    "name": "Pattaya",
    "lat": 12.9236,
    "lng": 100.8825,
    "country_id": "TH"
  },
  {
    "id": "c363",
    "name": "Ipoh",
    "lat": 4.5975,
    "lng": 101.0901,
    "country_id": "MY"
  },
  {
    "id": "c364",
    "name": "Kota Kinabalu",
    "lat": 5.9804,
    "lng": 116.0735,
    "country_id": "MY"
  },
  {
    "id": "c365",
    "name": "Katowice",
    "lat": 50.2649,
    "lng": 19.0238,
    "country_id": "PL"
  },
  {
    "id": "c366",
    "name": "Łódź",
    "lat": 51.7592,
    "lng": 19.456,
    "country_id": "PL"
  },
  {
    "id": "c367",
    "name": "Poznan",
    "lat": 52.4064,
    "lng": 16.9252,
    "country_id": "PL"
  },
  {
    "id": "c368",
    "name": "Ostrava",
    "lat": 49.8209,
    "lng": 18.2625,
    "country_id": "CZ"
  },
  {
    "id": "c369",
    "name": "Pécs",
    "lat": 46.0727,
    "lng": 18.233,
    "country_id": "HU"
  },
  {
    "id": "c370",
    "name": "Debrecen",
    "lat": 47.5316,
    "lng": 21.6273,
    "country_id": "HU"
  },
  {
    "id": "c371",
    "name": "Timișoara",
    "lat": 45.7489,
    "lng": 21.2087,
    "country_id": "RO"
  },
  {
    "id": "c372",
    "name": "Brașov",
    "lat": 45.6427,
    "lng": 25.5887,
    "country_id": "RO"
  },
  {
    "id": "c373",
    "name": "Plovdiv",
    "lat": 42.1354,
    "lng": 24.7453,
    "country_id": "BG"
  },
  {
    "id": "c374",
    "name": "Varna",
    "lat": 43.2141,
    "lng": 27.9147,
    "country_id": "BG"
  },
  {
    "id": "c375",
    "name": "Novi Sad",
    "lat": 45.2671,
    "lng": 19.8335,
    "country_id": "RS"
  },
  {
    "id": "c376",
    "name": "Thessaly",
    "lat": 39.6243,
    "lng": 22.4289,
    "country_id": "GR"
  },
  {
    "id": "c377",
    "name": "Gothenburg",
    "lat": 57.7089,
    "lng": 11.9746,
    "country_id": "SE"
  },
  {
    "id": "c378",
    "name": "Malmö",
    "lat": 55.605,
    "lng": 13.0038,
    "country_id": "SE"
  },
  {
    "id": "c379",
    "name": "Trondheim",
    "lat": 63.4305,
    "lng": 10.3951,
    "country_id": "NO"
  },
  {
    "id": "c380",
    "name": "Stavanger",
    "lat": 58.97,
    "lng": 5.7331,
    "country_id": "NO"
  },
  {
    "id": "c381",
    "name": "Aarhus",
    "lat": 56.1629,
    "lng": 10.2039,
    "country_id": "DK"
  },
  {
    "id": "c382",
    "name": "Tampere",
    "lat": 61.4978,
    "lng": 23.761,
    "country_id": "FI"
  },
  {
    "id": "c383",
    "name": "Turku",
    "lat": 60.4518,
    "lng": 22.2666,
    "country_id": "FI"
  },
  {
    "id": "c384",
    "name": "Lausanne",
    "lat": 46.5197,
    "lng": 6.6323,
    "country_id": "CH"
  },
  {
    "id": "c385",
    "name": "Ghent",
    "lat": 51.0538,
    "lng": 3.7174,
    "country_id": "BE"
  },
  {
    "id": "c386",
    "name": "Liège",
    "lat": 50.6326,
    "lng": 5.5797,
    "country_id": "BE"
  },
  {
    "id": "c387",
    "name": "Coimbra",
    "lat": 40.2033,
    "lng": -8.4103,
    "country_id": "PT"
  },
  {
    "id": "c388",
    "name": "Braga",
    "lat": 41.5454,
    "lng": -8.4265,
    "country_id": "PT"
  },
  {
    "id": "c389",
    "name": "Galway",
    "lat": 53.2707,
    "lng": -9.0568,
    "country_id": "IE"
  },
  {
    "id": "c390",
    "name": "Limerick",
    "lat": 52.6638,
    "lng": -8.6267,
    "country_id": "IE"
  },
  {
    "id": "c391",
    "name": "Genoa",
    "lat": 44.4056,
    "lng": 8.9463,
    "country_id": "IT"
  },
  {
    "id": "c392",
    "name": "Bologna",
    "lat": 44.4949,
    "lng": 11.3426,
    "country_id": "IT"
  },
  {
    "id": "c393",
    "name": "Palermo",
    "lat": 38.1157,
    "lng": 13.3615,
    "country_id": "IT"
  },
  {
    "id": "c394",
    "name": "Catania",
    "lat": 37.5079,
    "lng": 15.083,
    "country_id": "IT"
  },
  {
    "id": "c395",
    "name": "Verona",
    "lat": 45.4384,
    "lng": 10.9916,
    "country_id": "IT"
  },
  {
    "id": "c396",
    "name": "Seville",
    "lat": 37.3891,
    "lng": -5.9845,
    "country_id": "ES"
  },
  {
    "id": "c397",
    "name": "Zaragoza",
    "lat": 41.6488,
    "lng": -0.8891,
    "country_id": "ES"
  },
  {
    "id": "c398",
    "name": "Málaga",
    "lat": 36.7213,
    "lng": -4.4214,
    "country_id": "ES"
  },
  {
    "id": "c399",
    "name": "Strasbourg",
    "lat": 48.5734,
    "lng": 7.7521,
    "country_id": "FR"
  },
  {
    "id": "c400",
    "name": "Nantes",
    "lat": 47.2184,
    "lng": -1.5536,
    "country_id": "FR"
  },
  {
    "id": "c401",
    "name": "Montpellier",
    "lat": 43.6108,
    "lng": 3.8767,
    "country_id": "FR"
  },
  {
    "id": "c402",
    "name": "Rennes",
    "lat": 48.1173,
    "lng": -1.6778,
    "country_id": "FR"
  },
  {
    "id": "c403",
    "name": "Sheffield",
    "lat": 53.3811,
    "lng": -1.4701,
    "country_id": "GB"
  },
  {
    "id": "c404",
    "name": "Newcastle",
    "lat": 54.9783,
    "lng": -1.6178,
    "country_id": "GB"
  },
  {
    "id": "c405",
    "name": "Nottingham",
    "lat": 52.9548,
    "lng": -1.1581,
    "country_id": "GB"
  },
  {
    "id": "c406",
    "name": "Cardiff",
    "lat": 51.4816,
    "lng": -3.1791,
    "country_id": "GB"
  },
  {
    "id": "c407",
    "name": "Belfast",
    "lat": 54.5973,
    "lng": -5.9301,
    "country_id": "GB"
  },
  {
    "id": "c408",
    "name": "Austin",
    "lat": 30.2672,
    "lng": -97.7431,
    "country_id": "US"
  },
  {
    "id": "c409",
    "name": "Jacksonville",
    "lat": 30.3322,
    "lng": -81.6557,
    "country_id": "US"
  },
  {
    "id": "c410",
    "name": "Columbus",
    "lat": 39.9612,
    "lng": -82.9988,
    "country_id": "US"
  },
  {
    "id": "c411",
    "name": "Charlotte",
    "lat": 35.2271,
    "lng": -80.8431,
    "country_id": "US"
  },
  {
    "id": "c412",
    "name": "Indianapolis",
    "lat": 39.7684,
    "lng": -86.1581,
    "country_id": "US"
  },
  {
    "id": "c413",
    "name": "Fort Worth",
    "lat": 32.7555,
    "lng": -97.3308,
    "country_id": "US"
  },
  {
    "id": "c414",
    "name": "San Jose",
    "lat": 37.3382,
    "lng": -121.8863,
    "country_id": "US"
  },
  {
    "id": "c415",
    "name": "Memphis",
    "lat": 35.1495,
    "lng": -90.049,
    "country_id": "US"
  },
  {
    "id": "c416",
    "name": "Baltimore",
    "lat": 39.2904,
    "lng": -76.6122,
    "country_id": "US"
  },
  {
    "id": "c417",
    "name": "Louisville",
    "lat": 38.2527,
    "lng": -85.7585,
    "country_id": "US"
  },
  {
    "id": "c418",
    "name": "Milwaukee",
    "lat": 43.0389,
    "lng": -87.9065,
    "country_id": "US"
  },
  {
    "id": "c419",
    "name": "Albuquerque",
    "lat": 35.0844,
    "lng": -106.6504,
    "country_id": "US"
  },
  {
    "id": "c420",
    "name": "Tucson",
    "lat": 32.2226,
    "lng": -110.9747,
    "country_id": "US"
  },
  {
    "id": "c421",
    "name": "Fresno",
    "lat": 36.7378,
    "lng": -119.7871,
    "country_id": "US"
  },
  {
    "id": "c422",
    "name": "Sacramento",
    "lat": 38.5816,
    "lng": -121.4944,
    "country_id": "US"
  },
  {
    "id": "c423",
    "name": "Kansas City",
    "lat": 39.0997,
    "lng": -94.5786,
    "country_id": "US"
  },
  {
    "id": "c424",
    "name": "Omaha",
    "lat": 41.2565,
    "lng": -95.9345,
    "country_id": "US"
  },
  {
    "id": "c425",
    "name": "Raleigh",
    "lat": 35.7796,
    "lng": -78.6382,
    "country_id": "US"
  },
  {
    "id": "c426",
    "name": "Colorado Springs",
    "lat": 38.8339,
    "lng": -104.8214,
    "country_id": "US"
  },
  {
    "id": "c427",
    "name": "Virginia Beach",
    "lat": 36.8529,
    "lng": -75.978,
    "country_id": "US"
  },
  {
    "id": "c428",
    "name": "Long Beach",
    "lat": 33.7701,
    "lng": -118.1937,
    "country_id": "US"
  },
  {
    "id": "c429",
    "name": "Oakland",
    "lat": 37.8044,
    "lng": -122.2712,
    "country_id": "US"
  },
  {
    "id": "c430",
    "name": "Tampa",
    "lat": 27.9506,
    "lng": -82.4572,
    "country_id": "US"
  },
  {
    "id": "c431",
    "name": "New Orleans",
    "lat": 29.9511,
    "lng": -90.0715,
    "country_id": "US"
  },
  {
    "id": "c432",
    "name": "Bangalore extra",
    "lat": 12.9352,
    "lng": 77.6245,
    "country_id": "IN"
  },
  {
    "id": "c433",
    "name": "Guadalajara extra",
    "lat": 20.6597,
    "lng": -103.3496,
    "country_id": "MX"
  },
  {
    "id": "c434",
    "name": "Puebla",
    "lat": 19.0414,
    "lng": -98.2063,
    "country_id": "MX"
  },
  {
    "id": "c435",
    "name": "León",
    "lat": 21.1221,
    "lng": -101.6826,
    "country_id": "MX"
  },
  {
    "id": "c436",
    "name": "Medellin extra",
    "lat": 6.2518,
    "lng": -75.5636,
    "country_id": "CO"
  },
  {
    "id": "c437",
    "name": "Barranquilla",
    "lat": 10.9685,
    "lng": -74.7813,
    "country_id": "CO"
  },
  {
    "id": "c438",
    "name": "Recife",
    "lat": -8.0476,
    "lng": -34.877,
    "country_id": "BR"
  },
  {
    "id": "c439",
    "name": "Manaus",
    "lat": -3.119,
    "lng": -60.0217,
    "country_id": "BR"
  },
  {
    "id": "c440",
    "name": "Belém",
    "lat": -1.4558,
    "lng": -48.5044,
    "country_id": "BR"
  },
  {
    "id": "c441",
    "name": "Goiânia",
    "lat": -16.6864,
    "lng": -49.2643,
    "country_id": "BR"
  },
  {
    "id": "c442",
    "name": "Campinas",
    "lat": -22.9099,
    "lng": -47.0626,
    "country_id": "BR"
  },
  {
    "id": "c443",
    "name": "Córdoba extra",
    "lat": -31.4201,
    "lng": -64.1888,
    "country_id": "AR"
  },
  {
    "id": "c444",
    "name": "Tucumán",
    "lat": -26.8083,
    "lng": -65.2176,
    "country_id": "AR"
  },
  {
    "id": "c445",
    "name": "Mar del Plata",
    "lat": -38.0023,
    "lng": -57.5575,
    "country_id": "AR"
  },
  {
    "id": "c446",
    "name": "Valparaíso extra",
    "lat": -33.0472,
    "lng": -71.6127,
    "country_id": "CL"
  },
  {
    "id": "c447",
    "name": "Concepción",
    "lat": -36.8201,
    "lng": -73.0444,
    "country_id": "CL"
  },
  {
    "id": "c448",
    "name": "Trujillo",
    "lat": -8.1091,
    "lng": -79.0215,
    "country_id": "PE"
  },
  {
    "id": "c449",
    "name": "Arequipa",
    "lat": -16.409,
    "lng": -71.5375,
    "country_id": "PE"
  },
  {
    "id": "c450",
    "name": "Cochabamba",
    "lat": -17.3895,
    "lng": -66.1568,
    "country_id": "BO"
  },
  {
    "id": "c451",
    "name": "Guayaquil extra",
    "lat": -2.1709,
    "lng": -79.9224,
    "country_id": "EC"
  },
  {
    "id": "c452",
    "name": "Cuenca",
    "lat": -2.9001,
    "lng": -79.0059,
    "country_id": "EC"
  },
  {
    "id": "c453",
    "name": "Maracay",
    "lat": 10.2469,
    "lng": -67.5958,
    "country_id": "VE"
  },
  {
    "id": "c454",
    "name": "Valencia VE",
    "lat": 10.162,
    "lng": -67.9938,
    "country_id": "VE"
  },
  {
    "id": "c455",
    "name": "Santiago de Cuba",
    "lat": 20.02,
    "lng": -75.82,
    "country_id": "CU"
  },
  {
    "id": "c456",
    "name": "San Pedro de Macorís",
    "lat": 18.4518,
    "lng": -69.3051,
    "country_id": "DO"
  },
  {
    "id": "c457",
    "name": "Tbilisi extra",
    "lat": 41.6938,
    "lng": 44.8015,
    "country_id": "GE"
  },
  {
    "id": "c458",
    "name": "Batumi",
    "lat": 41.6168,
    "lng": 41.6367,
    "country_id": "GE"
  },
  {
    "id": "c459",
    "name": "Gyumri",
    "lat": 40.7942,
    "lng": 43.8453,
    "country_id": "AM"
  },
  {
    "id": "c460",
    "name": "Ganja",
    "lat": 40.6828,
    "lng": 46.3606,
    "country_id": "AZ"
  },
  {
    "id": "c461",
    "name": "Sumqayit",
    "lat": 40.5897,
    "lng": 49.6686,
    "country_id": "AZ"
  },
  {
    "id": "c462",
    "name": "Almaty extra",
    "lat": 43.2775,
    "lng": 76.8958,
    "country_id": "KZ"
  },
  {
    "id": "c463",
    "name": "Nur-Sultan extra",
    "lat": 51.1605,
    "lng": 71.4704,
    "country_id": "KZ"
  },
  {
    "id": "c464",
    "name": "Bukhara",
    "lat": 39.7747,
    "lng": 64.4286,
    "country_id": "UZ"
  },
  {
    "id": "c465",
    "name": "Namangan",
    "lat": 40.9983,
    "lng": 71.6726,
    "country_id": "UZ"
  },
  {
    "id": "c466",
    "name": "Bishkek",
    "lat": 42.8746,
    "lng": 74.5698,
    "country_id": "KG"
  },
  {
    "id": "c467",
    "name": "Dushanbe",
    "lat": 38.5598,
    "lng": 68.7738,
    "country_id": "TJ"
  },
  {
    "id": "c468",
    "name": "Ashgabat",
    "lat": 37.9601,
    "lng": 58.3261,
    "country_id": "TM"
  },
  {
    "id": "c469",
    "name": "Kabul",
    "lat": 34.5553,
    "lng": 69.2075,
    "country_id": "AF"
  },
  {
    "id": "c470",
    "name": "Kandahar",
    "lat": 31.6289,
    "lng": 65.7372,
    "country_id": "AF"
  },
  {
    "id": "c471",
    "name": "Mosul",
    "lat": 36.335,
    "lng": 43.1189,
    "country_id": "IQ"
  },
  {
    "id": "c472",
    "name": "Erbil",
    "lat": 36.1901,
    "lng": 44.0091,
    "country_id": "IQ"
  },
  {
    "id": "c473",
    "name": "Aleppo",
    "lat": 36.2021,
    "lng": 37.1343,
    "country_id": "SY"
  },
  {
    "id": "c474",
    "name": "Damascus",
    "lat": 33.5138,
    "lng": 36.2765,
    "country_id": "SY"
  },
  {
    "id": "c475",
    "name": "Sanaa",
    "lat": 15.3694,
    "lng": 44.191,
    "country_id": "YE"
  },
  {
    "id": "c476",
    "name": "Aden",
    "lat": 12.8,
    "lng": 45.033,
    "country_id": "YE"
  },
  {
    "id": "c477",
    "name": "Tripoli LB",
    "lat": 34.4367,
    "lng": 35.8497,
    "country_id": "LB"
  },
  {
    "id": "c478",
    "name": "Zarqa",
    "lat": 32.0728,
    "lng": 36.0879,
    "country_id": "JO"
  },
  {
    "id": "c479",
    "name": "Irbid",
    "lat": 32.5556,
    "lng": 35.85,
    "country_id": "JO"
  },
  {
    "id": "c480",
    "name": "Colombo extra",
    "lat": 6.9271,
    "lng": 79.8612,
    "country_id": "LK"
  },
  {
    "id": "c481",
    "name": "Naypyidaw extra",
    "lat": 19.7475,
    "lng": 96.115,
    "country_id": "MM"
  },
  {
    "id": "c482",
    "name": "Vientiane extra",
    "lat": 17.9667,
    "lng": 102.6,
    "country_id": "LA"
  },
  {
    "id": "c483",
    "name": "Phnom Penh extra",
    "lat": 11.55,
    "lng": 104.9167,
    "country_id": "KH"
  },
  {
    "id": "c484",
    "name": "Bandar Seri Begawan extra",
    "lat": 4.8903,
    "lng": 114.9422,
    "country_id": "BN"
  },
  {
    "id": "c485",
    "name": "Ulaanbaatar extra",
    "lat": 47.9077,
    "lng": 106.8832,
    "country_id": "MN"
  },
  {
    "id": "c486",
    "name": "Pyongyang",
    "lat": 39.0392,
    "lng": 125.7625,
    "country_id": "KP"
  },
  {
    "id": "c487",
    "name": "Conakry",
    "lat": 9.6412,
    "lng": -13.5784,
    "country_id": "GN"
  },
  {
    "id": "c488",
    "name": "Freetown",
    "lat": 8.4657,
    "lng": -13.2317,
    "country_id": "SL"
  },
  {
    "id": "c489",
    "name": "Monrovia",
    "lat": 6.3004,
    "lng": -10.7969,
    "country_id": "LR"
  },
  {
    "id": "c490",
    "name": "Yamoussoukro",
    "lat": 6.8276,
    "lng": -5.2893,
    "country_id": "CI"
  },
  {
    "id": "c491",
    "name": "Ouagadougou",
    "lat": 12.3569,
    "lng": -1.5352,
    "country_id": "BF"
  },
  {
    "id": "c492",
    "name": "Bamako",
    "lat": 12.6392,
    "lng": -8.0029,
    "country_id": "ML"
  },
  {
    "id": "c493",
    "name": "Niamey",
    "lat": 13.5137,
    "lng": 2.1098,
    "country_id": "NE"
  },
  {
    "id": "c494",
    "name": "N'Djamena",
    "lat": 12.1048,
    "lng": 15.0445,
    "country_id": "TD"
  },
  {
    "id": "c495",
    "name": "Bangui",
    "lat": 4.3612,
    "lng": 18.555,
    "country_id": "CF"
  },
  {
    "id": "c496",
    "name": "Libreville",
    "lat": 0.4162,
    "lng": 9.4673,
    "country_id": "GA"
  },
  {
    "id": "c497",
    "name": "Brazzaville",
    "lat": -4.2661,
    "lng": 15.2832,
    "country_id": "CG"
  },
  {
    "id": "c498",
    "name": "Kinshasa",
    "lat": -4.3276,
    "lng": 15.3136,
    "country_id": "CD"
  },
  {
    "id": "c499",
    "name": "Bujumbura",
    "lat": -3.3822,
    "lng": 29.3644,
    "country_id": "BI"
  },
  {
    "id": "c500",
    "name": "Lilongwe",
    "lat": -13.9626,
    "lng": 33.7741,
    "country_id": "MW"
  }
]